{
"type": "FeatureCollection",
"name": "Public_Health_Clinics___ph_clinics_point",
"crs": { "type": "name", "properties": { "name": "urn:ogc:def:crs:OGC:1.3:CRS84" } },
"features": [
{ "type": "Feature", "properties": { "OBJECTID": 1, "FEATURE_ID": 3400013, "ESITE": "805031", "CODE": 340, "NAME": "Kent Birch Creek Public Health Center", "ABB_NAME": "Birch Creek Public Health Center", "ADDRESS": "13111 SE 274th St", "ZIPCODE": "98030", "WEBSITE": "https://kingcounty.gov/en/dept/dph/health-safety/health-centers-programs-services/public-health-centers/kent-birch-creek", "CITY": "Kent", "COUNCIL": "8", "FULLORPART": "Part", "CLINIC_OPERATOR": "Public Health Center", "WIC": "Y", "FIRSTSTEPS": "Y", "CSHCN": "N", "NFP": "N", "SEXUALHEALTH": "N", "PRIMARYCARE": "N", "DENTAL": "N", "PATHWAYS": "N", "REFUGEE": "N", "KIDSPLUS": "N" }, "geometry": { "type": "Point", "coordinates": [ -122.166190636880714, 47.355583334798702 ] } },
{ "type": "Feature", "properties": { "OBJECTID": 2, "FEATURE_ID": 3400009, "ESITE": "102984", "CODE": 340, "NAME": "Eastgate Public Health Center", "ABB_NAME": "Eastgage Public Health Center", "ADDRESS": "14350 SE Eastgate Way", "ZIPCODE": "98007", "WEBSITE": "https://kingcounty.gov/en/dept/dph/health-safety/health-centers-programs-services/public-health-centers/eastgate", "CITY": "Bellevue", "COUNCIL": "9", "FULLORPART": "Full", "CLINIC_OPERATOR": "Public Health Center", "WIC": "Y", "FIRSTSTEPS": "Y", "CSHCN": "N", "NFP": "N", "SEXUALHEALTH": "Y", "PRIMARYCARE": "Y", "DENTAL": "Y", "PATHWAYS": "N", "REFUGEE": "N", "KIDSPLUS": "N" }, "geometry": { "type": "Point", "coordinates": [ -122.149880762426932, 47.581159291714705 ] } },
{ "type": "Feature", "properties": { "OBJECTID": 3, "FEATURE_ID": 3400004, "ESITE": "1026666", "CODE": 340, "NAME": "Renton Public Health Center", "ABB_NAME": "Renton Public Health Center", "ADDRESS": "3201 NE 7th St", "ZIPCODE": "98056", "WEBSITE": "https://kingcounty.gov/en/dept/dph/health-safety/health-centers-programs-services/public-health-centers/renton", "CITY": "Renton", "COUNCIL": "5", "FULLORPART": "Full", "CLINIC_OPERATOR": "Public Health Center", "WIC": "Y", "FIRSTSTEPS": "Y", "CSHCN": "Y", "NFP": "N", "SEXUALHEALTH": "N", "PRIMARYCARE": "N", "DENTAL": "Y", "PATHWAYS": "N", "REFUGEE": "N", "KIDSPLUS": "N" }, "geometry": { "type": "Point", "coordinates": [ -122.176095378162998, 47.494829778254669 ] } },
{ "type": "Feature", "properties": { "OBJECTID": 4, "FEATURE_ID": 3400008, "ESITE": "255311", "CODE": 340, "NAME": "North Seattle Dental Clinic", "ABB_NAME": "North Seattle Dental Clinic", "ADDRESS": "12359 Lake City Way NE", "ZIPCODE": "98125", "WEBSITE": "https://kingcounty.gov/en/dept/dph/health-safety/health-centers-programs-services/dental-clinics-programs/north-dental-clinic", "CITY": "Seattle", "COUNCIL": "1", "FULLORPART": "Full", "CLINIC_OPERATOR": "Public Health Center", "WIC": "N", "FIRSTSTEPS": "N", "CSHCN": "N", "NFP": "N", "SEXUALHEALTH": "N", "PRIMARYCARE": "N", "DENTAL": "Y", "PATHWAYS": "N", "REFUGEE": "N", "KIDSPLUS": "N" }, "geometry": { "type": "Point", "coordinates": [ -122.295751655073701, 47.718985430038423 ] } },
{ "type": "Feature", "properties": { "OBJECTID": 5, "FEATURE_ID": 3400007, "ESITE": "994352", "CODE": 340, "NAME": "White Center Public Health Center", "ABB_NAME": "White Center Public Health Center", "ADDRESS": "9934 8th Ave SW", "ZIPCODE": "98106", "WEBSITE": "https://kingcounty.gov/en/dept/dph/health-safety/health-centers-programs-services/public-health-centers/white-center", "CITY": "Seattle", "COUNCIL": "8", "FULLORPART": "Part", "CLINIC_OPERATOR": "Public Health Center", "WIC": "Y", "FIRSTSTEPS": "Y", "CSHCN": "N", "NFP": "N", "SEXUALHEALTH": "N", "PRIMARYCARE": "N", "DENTAL": "N", "PATHWAYS": "N", "REFUGEE": "N", "KIDSPLUS": "N" }, "geometry": { "type": "Point", "coordinates": [ -122.344982445364224, 47.51431913567049 ] } },
{ "type": "Feature", "properties": { "OBJECTID": 6, "FEATURE_ID": 10000035, "ESITE": "00000", "CODE": 340, "NAME": "Des Moines at HealthPoint Midway", "ABB_NAME": "HealthPoint-Midway", "ADDRESS": "26401 Pacific Hwy S", "ZIPCODE": "98198", "WEBSITE": "https://kingcounty.gov/en/dept/dph/health-safety/health-centers-programs-services/public-health-centers/des-moines", "CITY": "Des Moines", "COUNCIL": "9", "FULLORPART": "Full", "CLINIC_OPERATOR": "Partner Site", "WIC": "Y", "FIRSTSTEPS": "Y", "CSHCN": "N", "NFP": "N", "SEXUALHEALTH": "N", "PRIMARYCARE": "N", "DENTAL": "N", "PATHWAYS": "N", "REFUGEE": "N", "KIDSPLUS": "N" }, "geometry": { "type": "Point", "coordinates": [ -122.306246054769957, 47.365126183367899 ] } },
{ "type": "Feature", "properties": { "OBJECTID": 7, "FEATURE_ID": 10001754, "ESITE": "0000", "CODE": 340, "NAME": "Kent at HealthPoint", "ABB_NAME": "Kent at HealthPoint", "ADDRESS": "403 E Meeker St", "ZIPCODE": "98030", "WEBSITE": "https://kingcounty.gov/en/dept/dph/health-safety/health-centers-programs-services/maternity-support-wic/wic-supplemental-nutrition-program", "CITY": "Kent", "COUNCIL": "9", "FULLORPART": "Part", "CLINIC_OPERATOR": "Partner Site", "WIC": "Y", "FIRSTSTEPS": "Y", "CSHCN": "N", "NFP": "N", "SEXUALHEALTH": "N", "PRIMARYCARE": "N", "DENTAL": "N", "PATHWAYS": "N", "REFUGEE": "N", "KIDSPLUS": "N" }, "geometry": { "type": "Point", "coordinates": [ -122.229348054709916, 47.381910631071577 ] } },
{ "type": "Feature", "properties": { "OBJECTID": 8, "FEATURE_ID": 10001749, "ESITE": "0000", "CODE": 340, "NAME": "Bothell at HealthPoint", "ABB_NAME": "Bothell at HealthPoint", "ADDRESS": "10414 Beardslee Blvd", "ZIPCODE": "98011", "WEBSITE": "https://kingcounty.gov/en/dept/dph/health-safety/health-centers-programs-services/maternity-support-wic/wic-supplemental-nutrition-program", "CITY": "Bothell", "COUNCIL": "1", "FULLORPART": "Part", "CLINIC_OPERATOR": "Partner Site", "WIC": "Y", "FIRSTSTEPS": "Y", "CSHCN": "N", "NFP": "N", "SEXUALHEALTH": "N", "PRIMARYCARE": "N", "DENTAL": "N", "PATHWAYS": "N", "REFUGEE": "N", "KIDSPLUS": "N" }, "geometry": { "type": "Point", "coordinates": [ -122.200587540216688, 47.760939421335522 ] } },
{ "type": "Feature", "properties": { "OBJECTID": 9, "FEATURE_ID": 10001750, "ESITE": "0000", "CODE": 340, "NAME": "Carnation at Hopelink", "ABB_NAME": "Carnation at Hopelink", "ADDRESS": "39157 E Commercial St", "ZIPCODE": "98014", "WEBSITE": "https://kingcounty.gov/en/dept/dph/health-safety/health-centers-programs-services/maternity-support-wic/wic-supplemental-nutrition-program", "CITY": "Carnation", "COUNCIL": "8", "FULLORPART": "Part", "CLINIC_OPERATOR": "Partner Site", "WIC": "Y", "FIRSTSTEPS": "Y", "CSHCN": "N", "NFP": "N", "SEXUALHEALTH": "N", "PRIMARYCARE": "N", "DENTAL": "N", "PATHWAYS": "N", "REFUGEE": "N", "KIDSPLUS": "N" }, "geometry": { "type": "Point", "coordinates": [ -121.912672108311938, 47.648875283499926 ] } },
{ "type": "Feature", "properties": { "OBJECTID": 10, "FEATURE_ID": 10001752, "ESITE": "0000", "CODE": 340, "NAME": "Enumclaw at Valley Cities", "ABB_NAME": "Enumclaw at Valley Cities", "ADDRESS": "1335 Cole Street", "ZIPCODE": "98022", "WEBSITE": "https://kingcounty.gov/en/dept/dph/health-safety/health-centers-programs-services/maternity-support-wic/wic-supplemental-nutrition-program", "CITY": "Enumclaw", "COUNCIL": "8", "FULLORPART": "Part", "CLINIC_OPERATOR": "Partner Site", "WIC": "Y", "FIRSTSTEPS": "Y", "CSHCN": "N", "NFP": "N", "SEXUALHEALTH": "N", "PRIMARYCARE": "N", "DENTAL": "N", "PATHWAYS": "N", "REFUGEE": "N", "KIDSPLUS": "N" }, "geometry": { "type": "Point", "coordinates": [ -121.991504718212994, 47.201658676579022 ] } },
{ "type": "Feature", "properties": { "OBJECTID": 11, "FEATURE_ID": 10001766, "ESITE": "0000", "CODE": 340, "NAME": "West Seattle at Neighborcare Highpoint", "ABB_NAME": "West Seattle at Neighborcare Highpoint", "ADDRESS": "6020 35th Ave SW", "ZIPCODE": "98126", "WEBSITE": "https://kingcounty.gov/en/dept/dph/health-safety/health-centers-programs-services/maternity-support-wic/wic-supplemental-nutrition-program", "CITY": "Seattle", "COUNCIL": "8", "FULLORPART": "Part", "CLINIC_OPERATOR": "Partner Site", "WIC": "Y", "FIRSTSTEPS": "Y", "CSHCN": "N", "NFP": "N", "SEXUALHEALTH": "N", "PRIMARYCARE": "N", "DENTAL": "N", "PATHWAYS": "N", "REFUGEE": "N", "KIDSPLUS": "N" }, "geometry": { "type": "Point", "coordinates": [ -122.376011749223977, 47.54780183809855 ] } },
{ "type": "Feature", "properties": { "OBJECTID": 12, "FEATURE_ID": 3400006, "ESITE": "248553", "CODE": 340, "NAME": "North Meridian Center for Health (North Seattle)", "ABB_NAME": "North Meridian Center for Health", "ADDRESS": "10501 Meridian Ave N", "ZIPCODE": "98133", "WEBSITE": "https://kingcounty.gov/en/dept/dph/health-safety/health-centers-programs-services/maternity-support-wic/wic-supplemental-nutrition-program", "CITY": "Seattle", "COUNCIL": "4", "FULLORPART": "Full", "CLINIC_OPERATOR": "Public Health Center", "WIC": "Y", "FIRSTSTEPS": "Y", "CSHCN": "N", "NFP": "N", "SEXUALHEALTH": "N", "PRIMARYCARE": "N", "DENTAL": "N", "PATHWAYS": "N", "REFUGEE": "N", "KIDSPLUS": "N" }, "geometry": { "type": "Point", "coordinates": [ -122.334831937501633, 47.705654124780196 ] } },
{ "type": "Feature", "properties": { "OBJECTID": 13, "FEATURE_ID": 10001748, "ESITE": "00000", "CODE": 340, "NAME": "Auburn at HealthPoint", "ABB_NAME": "Auburn at HealthPoint", "ADDRESS": "126 Auburn Ave", "ZIPCODE": "98002", "WEBSITE": "https://kingcounty.gov/en/dept/dph/health-safety/health-centers-programs-services/maternity-support-wic/wic-supplemental-nutrition-program", "CITY": "Auburn", "COUNCIL": "7", "FULLORPART": "Part", "CLINIC_OPERATOR": "Partner Site", "WIC": "Y", "FIRSTSTEPS": "Y", "CSHCN": "N", "NFP": "N", "SEXUALHEALTH": "N", "PRIMARYCARE": "N", "DENTAL": "N", "PATHWAYS": "N", "REFUGEE": "N", "KIDSPLUS": "N" }, "geometry": { "type": "Point", "coordinates": [ -122.227480347080132, 47.308917562957319 ] } },
{ "type": "Feature", "properties": { "OBJECTID": 14, "FEATURE_ID": 10001753, "ESITE": "0000", "CODE": 340, "NAME": "Ingraham School Based Health Center ", "ABB_NAME": "Ingraham School Based Health Center ", "ADDRESS": "1819 N 135th St", "ZIPCODE": "98133", "WEBSITE": "https://ingrahamhs.seattleschools.org/resources/teen-health-center/", "CITY": "Seattle", "COUNCIL": "1", "FULLORPART": "Full (school year)", "CLINIC_OPERATOR": "Public Health Center", "WIC": "N", "FIRSTSTEPS": "N", "CSHCN": "N", "NFP": "N", "SEXUALHEALTH": "Y", "PRIMARYCARE": "Y", "DENTAL": "N", "PATHWAYS": "N", "REFUGEE": "N", "KIDSPLUS": "N" }, "geometry": { "type": "Point", "coordinates": [ -122.337904999712237, 47.726231886183264 ] } },
{ "type": "Feature", "properties": { "OBJECTID": 15, "FEATURE_ID": 10001761, "ESITE": "0000", "CODE": 340, "NAME": "Shoreline at Center for Human Services", "ABB_NAME": "Shoreline at Center for Human Services", "ADDRESS": "17018 15th Ave NE", "ZIPCODE": "98155", "WEBSITE": "https://kingcounty.gov/en/dept/dph/health-safety/health-centers-programs-services/maternity-support-wic/wic-supplemental-nutrition-program", "CITY": "Shoreline", "COUNCIL": "1", "FULLORPART": "Part", "CLINIC_OPERATOR": "Partner Site", "WIC": "Y", "FIRSTSTEPS": "Y", "CSHCN": "N", "NFP": "N", "SEXUALHEALTH": "N", "PRIMARYCARE": "N", "DENTAL": "N", "PATHWAYS": "N", "REFUGEE": "N", "KIDSPLUS": "N" }, "geometry": { "type": "Point", "coordinates": [ -122.31291172650019, 47.75259885856471 ] } },
{ "type": "Feature", "properties": { "OBJECTID": 16, "FEATURE_ID": 10001764, "ESITE": "0000", "CODE": 340, "NAME": "Street Medicine Team", "ABB_NAME": "Street Medicine Team", "ADDRESS": "401 5th Ave", "ZIPCODE": "98104", "WEBSITE": "https://kingcounty.gov/en/dept/dph/health-safety/health-centers-programs-services/health-services-for-the-homeless/healthcare-for-the-homeless/mobile-medical-care/street-medicine-team", "CITY": "Seattle", "COUNCIL": "0", "FULLORPART": "Full", "CLINIC_OPERATOR": "Public Health Center", "WIC": "N", "FIRSTSTEPS": "N", "CSHCN": "N", "NFP": "N", "SEXUALHEALTH": "N", "PRIMARYCARE": "Y", "DENTAL": "N", "PATHWAYS": "N", "REFUGEE": "N", "KIDSPLUS": "N" }, "geometry": { "type": "Point", "coordinates": [ -122.328539703514039, 47.602488985634508 ] } },
{ "type": "Feature", "properties": { "OBJECTID": 17, "FEATURE_ID": 10001751, "ESITE": "0000", "CODE": 340, "NAME": "Cleveland High School Based Health Center ", "ABB_NAME": "Cleveland High School", "ADDRESS": "5511 15th Ave S", "ZIPCODE": "98108", "WEBSITE": "https://clevelandhs.seattleschools.org/resources/school-nurse/teen-health-center/", "CITY": "Seattle", "COUNCIL": "2", "FULLORPART": "Full (school year)", "CLINIC_OPERATOR": "Public Health Center", "WIC": "N", "FIRSTSTEPS": "N", "CSHCN": "N", "NFP": "N", "SEXUALHEALTH": "Y", "PRIMARYCARE": "Y", "DENTAL": "N", "PATHWAYS": "N", "REFUGEE": "N", "KIDSPLUS": "N" }, "geometry": { "type": "Point", "coordinates": [ -122.31390982372281, 47.552300674669262 ] } },
{ "type": "Feature", "properties": { "OBJECTID": 18, "FEATURE_ID": 10001755, "ESITE": "0000", "CODE": 340, "NAME": "Lake City at North Seattle Family Center", "ABB_NAME": "Lake City at North Seattle Family Center", "ADDRESS": "2611 NE 125th", "ZIPCODE": "98125", "WEBSITE": "https://kingcounty.gov/en/dept/dph/health-safety/health-centers-programs-services/maternity-support-wic/wic-supplemental-nutrition-program", "CITY": "Seattle", "COUNCIL": "1", "FULLORPART": "Part", "CLINIC_OPERATOR": "Partner Site", "WIC": "Y", "FIRSTSTEPS": "Y", "CSHCN": "N", "NFP": "N", "SEXUALHEALTH": "N", "PRIMARYCARE": "N", "DENTAL": "N", "PATHWAYS": "N", "REFUGEE": "N", "KIDSPLUS": "N" }, "geometry": { "type": "Point", "coordinates": [ -122.299516477099985, 47.718983449209695 ] } },
{ "type": "Feature", "properties": { "OBJECTID": 19, "FEATURE_ID": 3400002, "ESITE": "705937", "CODE": 340, "NAME": "Federal Way Public Health Center", "ABB_NAME": "Federal Way Public Health Center", "ADDRESS": "33431 13th Pl S", "ZIPCODE": "98003", "WEBSITE": "https://kingcounty.gov/en/dept/dph/health-safety/health-centers-programs-services/public-health-centers/federal-way", "CITY": "Federal Way", "COUNCIL": "9", "FULLORPART": "Full", "CLINIC_OPERATOR": "Public Health Center", "WIC": "Y", "FIRSTSTEPS": "Y", "CSHCN": "N", "NFP": "N", "SEXUALHEALTH": "Y", "PRIMARYCARE": "N", "DENTAL": "N", "PATHWAYS": "N", "REFUGEE": "N", "KIDSPLUS": "N" }, "geometry": { "type": "Point", "coordinates": [ -122.31785599356688, 47.301956637416552 ] } },
{ "type": "Feature", "properties": { "OBJECTID": 20, "FEATURE_ID": 10001757, "ESITE": "0000", "CODE": 340, "NAME": "North Bend at Snoqualmie Food Bank", "ABB_NAME": "North Bend at Snoqualmie Food Bank", "ADDRESS": "122 East 3rd St", "ZIPCODE": "98045", "WEBSITE": "https://kingcounty.gov/en/dept/dph/health-safety/health-centers-programs-services/maternity-support-wic/wic-supplemental-nutrition-program", "CITY": "North Bend", "COUNCIL": "3", "FULLORPART": "Part", "CLINIC_OPERATOR": "Partner Site", "WIC": "Y", "FIRSTSTEPS": "Y", "CSHCN": "N", "NFP": "N", "SEXUALHEALTH": "N", "PRIMARYCARE": "N", "DENTAL": "N", "PATHWAYS": "N", "REFUGEE": "N", "KIDSPLUS": "N" }, "geometry": { "type": "Point", "coordinates": [ -121.78335533476141, 47.496352269913132 ] } },
{ "type": "Feature", "properties": { "OBJECTID": 21, "FEATURE_ID": 3400005, "ESITE": "38446", "CODE": 340, "NAME": "Northshore Public Health at Totem Lake", "ABB_NAME": "Northshore Public Health", "ADDRESS": "13030 121st Way NE", "ZIPCODE": "98034", "WEBSITE": "https://kingcounty.gov/en/dept/dph/health-safety/health-centers-programs-services/public-health-centers/totem-lake", "CITY": "Kirkland", "COUNCIL": "6", "FULLORPART": "Part", "CLINIC_OPERATOR": "Public Health Center", "WIC": "Y", "FIRSTSTEPS": "Y", "CSHCN": "N", "NFP": "N", "SEXUALHEALTH": "N", "PRIMARYCARE": "N", "DENTAL": "N", "PATHWAYS": "N", "REFUGEE": "N", "KIDSPLUS": "N" }, "geometry": { "type": "Point", "coordinates": [ -122.178620573998572, 47.717623575281628 ] } },
{ "type": "Feature", "properties": { "OBJECTID": 22, "FEATURE_ID": 10001756, "ESITE": "0000", "CODE": 340, "NAME": "Muckleshoot Wellness Center (Auburn) ", "ABB_NAME": "Muckleshoot Wellness Center (Auburn) ", "ADDRESS": "17500 SE 392 St", "ZIPCODE": "98092", "WEBSITE": "https://kingcounty.gov/en/dept/dph/health-safety/health-centers-programs-services/maternity-support-wic/wic-supplemental-nutrition-program", "CITY": "Auburn", "COUNCIL": "9", "FULLORPART": "Part", "CLINIC_OPERATOR": "Partner Site", "WIC": "Y", "FIRSTSTEPS": "Y", "CSHCN": "N", "NFP": "N", "SEXUALHEALTH": "N", "PRIMARYCARE": "N", "DENTAL": "N", "PATHWAYS": "N", "REFUGEE": "N", "KIDSPLUS": "N" }, "geometry": { "type": "Point", "coordinates": [ -122.107787879264791, 47.250998831627165 ] } },
{ "type": "Feature", "properties": { "OBJECTID": 23, "FEATURE_ID": 10001762, "ESITE": "0000", "CODE": 340, "NAME": "Skyway at Cynthia A. Green Family Center", "ABB_NAME": "Skyway Family Center ", "ADDRESS": "12704 76th Ave S", "ZIPCODE": "98178", "WEBSITE": "https://kingcounty.gov/en/dept/dph/health-safety/health-centers-programs-services/maternity-support-wic/wic-supplemental-nutrition-program", "CITY": "Seattle", "COUNCIL": "2", "FULLORPART": "Part", "CLINIC_OPERATOR": "Partner Site", "WIC": "Y", "FIRSTSTEPS": "Y", "CSHCN": "N", "NFP": "N", "SEXUALHEALTH": "N", "PRIMARYCARE": "N", "DENTAL": "N", "PATHWAYS": "N", "REFUGEE": "N", "KIDSPLUS": "N" }, "geometry": { "type": "Point", "coordinates": [ -122.237989594207548, 47.489133899776178 ] } },
{ "type": "Feature", "properties": { "OBJECTID": 24, "FEATURE_ID": 10001760, "ESITE": "0000", "CODE": 340, "NAME": "Seattle Mobile Medical Van", "ABB_NAME": "Seattle Mobile Medical Van", "ADDRESS": "401 5th Ave", "ZIPCODE": "98104", "WEBSITE": "https://kingcounty.gov/en/dept/dph/health-safety/health-centers-programs-services/health-services-for-the-homeless/healthcare-for-the-homeless/mobile-medical-care", "CITY": "Seattle", "COUNCIL": "0", "FULLORPART": "Full", "CLINIC_OPERATOR": "Public Health Center", "WIC": "N", "FIRSTSTEPS": "N", "CSHCN": "N", "NFP": "N", "SEXUALHEALTH": "N", "PRIMARYCARE": "Y", "DENTAL": "Y", "PATHWAYS": "N", "REFUGEE": "N", "KIDSPLUS": "N" }, "geometry": { "type": "Point", "coordinates": [ -122.328539703514039, 47.602488985634508 ] } },
{ "type": "Feature", "properties": { "OBJECTID": 25, "FEATURE_ID": 10001763, "ESITE": "0000", "CODE": 340, "NAME": "South King County Mobile Medical Van", "ABB_NAME": "South King County Mobile Medical Van", "ADDRESS": "3005 NE 4th St", "ZIPCODE": "98056", "WEBSITE": "https://kingcounty.gov/en/dept/dph/health-safety/health-centers-programs-services/health-services-for-the-homeless/healthcare-for-the-homeless/mobile-medical-care", "CITY": "Renton", "COUNCIL": "0", "FULLORPART": "Full", "CLINIC_OPERATOR": "Public Health Center", "WIC": "N", "FIRSTSTEPS": "N", "CSHCN": "N", "NFP": "N", "SEXUALHEALTH": "N", "PRIMARYCARE": "Y", "DENTAL": "Y", "PATHWAYS": "N", "REFUGEE": "N", "KIDSPLUS": "N" }, "geometry": { "type": "Point", "coordinates": [ -122.178630222204575, 47.486515597760437 ] } },
{ "type": "Feature", "properties": { "OBJECTID": 26, "FEATURE_ID": 3400014, "ESITE": "476708", "CODE": 340, "NAME": "Columbia City Center for Health", "ABB_NAME": "Columbia City Center for Health", "ADDRESS": "4400 37th Ave S", "ZIPCODE": "98118", "WEBSITE": "https://kingcounty.gov/en/dept/dph/health-safety/health-centers-programs-services/public-health-centers/columbia-city", "CITY": "Seattle", "COUNCIL": "9", "FULLORPART": "Full", "CLINIC_OPERATOR": "Public Health Center", "WIC": "Y", "FIRSTSTEPS": "Y", "CSHCN": "Y", "NFP": "Y", "SEXUALHEALTH": "N", "PRIMARYCARE": "N", "DENTAL": "Y", "PATHWAYS": "N", "REFUGEE": "N", "KIDSPLUS": "N" }, "geometry": { "type": "Point", "coordinates": [ -122.285745721172063, 47.563905529068222 ] } },
{ "type": "Feature", "properties": { "OBJECTID": 27, "FEATURE_ID": 3400003, "ESITE": "449596", "CODE": 340, "NAME": "Downtown Public Health Center", "ABB_NAME": "Downtown Public Health Center", "ADDRESS": "2124 4th Ave", "ZIPCODE": "98121", "WEBSITE": "https://kingcounty.gov/en/dept/dph/health-safety/health-centers-programs-services/public-health-centers/downtown-seattle", "CITY": "Seattle", "COUNCIL": "7", "FULLORPART": "Full", "CLINIC_OPERATOR": "Public Health Center", "WIC": "Y", "FIRSTSTEPS": "Y", "CSHCN": "N", "NFP": "Y", "SEXUALHEALTH": "N", "PRIMARYCARE": "Y", "DENTAL": "Y", "PATHWAYS": "Y", "REFUGEE": "Y", "KIDSPLUS": "Y" }, "geometry": { "type": "Point", "coordinates": [ -122.342165184319185, 47.614598966805737 ] } },
{ "type": "Feature", "properties": { "OBJECTID": 28, "FEATURE_ID": 3400001, "ESITE": "713051", "CODE": 340, "NAME": "Auburn Public Health Center", "ABB_NAME": "Auburn Public Health Center", "ADDRESS": "901 Auburn Way N", "ZIPCODE": "98002", "WEBSITE": "https://kingcounty.gov/en/dept/dph/health-safety/health-centers-programs-services/public-health-centers/auburn", "CITY": "Auburn", "COUNCIL": "9", "FULLORPART": "Full", "CLINIC_OPERATOR": "Public Health Center", "WIC": "Y", "FIRSTSTEPS": "Y", "CSHCN": "N", "NFP": "N", "SEXUALHEALTH": "Y", "PRIMARYCARE": "N", "DENTAL": "N", "PATHWAYS": "N", "REFUGEE": "N", "KIDSPLUS": "N" }, "geometry": { "type": "Point", "coordinates": [ -122.223277709323568, 47.316187042103174 ] } },
{ "type": "Feature", "properties": { "OBJECTID": 29, "FEATURE_ID": 3400012, "ESITE": "879919", "CODE": 340, "NAME": "Kent East Hill Public Health Center", "ABB_NAME": "East Hill Public Health Center", "ADDRESS": "25742 104th Ave SE", "ZIPCODE": "98030", "WEBSITE": "https://kingcounty.gov/en/dept/dph/health-safety/health-centers-programs-services/public-health-centers/kent", "CITY": "Kent", "COUNCIL": "6", "FULLORPART": "Full", "CLINIC_OPERATOR": "Public Health Center", "WIC": "Y", "FIRSTSTEPS": "Y", "CSHCN": "Y", "NFP": "Y", "SEXUALHEALTH": "Y", "PRIMARYCARE": "N", "DENTAL": "N", "PATHWAYS": "N", "REFUGEE": "N", "KIDSPLUS": "N" }, "geometry": { "type": "Point", "coordinates": [ -122.200735715894268, 47.370877113235089 ] } },
{ "type": "Feature", "properties": { "OBJECTID": 30, "FEATURE_ID": 10001759, "ESITE": "0000", "CODE": 340, "NAME": "SeaTac at HealthPoint", "ABB_NAME": "SeaTac at HealthPoint", "ADDRESS": "4040 S 188th St", "ZIPCODE": "98188", "WEBSITE": "https://kingcounty.gov/en/dept/dph/health-safety/health-centers-programs-services/maternity-support-wic/wic-supplemental-nutrition-program", "CITY": "SeaTac", "COUNCIL": "5", "FULLORPART": "Part", "CLINIC_OPERATOR": "Partner Site", "WIC": "Y", "FIRSTSTEPS": "Y", "CSHCN": "N", "NFP": "N", "SEXUALHEALTH": "N", "PRIMARYCARE": "N", "DENTAL": "N", "PATHWAYS": "N", "REFUGEE": "N", "KIDSPLUS": "N" }, "geometry": { "type": "Point", "coordinates": [ -122.282446917590377, 47.434694453445992 ] } },
{ "type": "Feature", "properties": { "OBJECTID": 31, "FEATURE_ID": 10001765, "ESITE": "0000", "CODE": 340, "NAME": "Vashon Island at United Methodist", "ABB_NAME": "Vashon Island at United Methodist", "ADDRESS": "17928 Vashon Hwy SW", "ZIPCODE": "98070", "WEBSITE": "https://kingcounty.gov/en/dept/dph/health-safety/health-centers-programs-services/maternity-support-wic/wic-supplemental-nutrition-program", "CITY": "Vashon", "COUNCIL": "8", "FULLORPART": "Part", "CLINIC_OPERATOR": "Partner Site", "WIC": "Y", "FIRSTSTEPS": "Y", "CSHCN": "N", "NFP": "N", "SEXUALHEALTH": "N", "PRIMARYCARE": "N", "DENTAL": "N", "PATHWAYS": "N", "REFUGEE": "N", "KIDSPLUS": "N" }, "geometry": { "type": "Point", "coordinates": [ -122.460084453442988, 47.443963756410568 ] } },
{ "type": "Feature", "properties": { "OBJECTID": 32, "FEATURE_ID": 10001758, "ESITE": "0000", "CODE": 340, "NAME": "Rainier Beach High School Based Health Center ", "ABB_NAME": "Rainier Beach High School ", "ADDRESS": "8815 Seward Park Ave S", "ZIPCODE": "98118", "WEBSITE": "https://rainierbeachhs.seattleschools.org/resources/teen-health-center/", "CITY": "Seattle", "COUNCIL": "2", "FULLORPART": "Full (school year)", "CLINIC_OPERATOR": "Public Health Center", "WIC": "N", "FIRSTSTEPS": "N", "CSHCN": "N", "NFP": "N", "SEXUALHEALTH": "Y", "PRIMARYCARE": "Y", "DENTAL": "N", "PATHWAYS": "N", "REFUGEE": "N", "KIDSPLUS": "N" }, "geometry": { "type": "Point", "coordinates": [ -122.265369673821894, 47.523819928160819 ] } }
]
}
